$GPRMC,062905.00,A,3746.81246,N,12224.40564,W,1.494,,050815,,,A*
144046
144047464
$GPRMC,062906.00,A,3746.81262,N,12224.40567,W,1.380,,050815,,,A*
145059
145061120
$GPRMC,062907.00,A,3746.81317,N,12224.40497,W,1.879,,050815,,,A*
146069
146071208
$GPRMC,062908.00,A,3746.81259,N,12224.40523,W,1.277,,050815,,,A*
147079
147080576
$GPRMC,062909.00,A,3746.81245,N,12224.40573,W,0.859,,050815,,,A*
148092
148094248
$GPRMC,062910.00,A,3746.81293,N,12224.40579,W,1.131,,050815,,,A*
149106
149107424
$GPRMC,062911.00,A,3746.81185,N,12224.40712,W,0.591,,050815,,,A*
150120
150121080
$GPRMC,062912.00,A,3746.81114,N,12224.40805,W,0.372,,050815,,,A*
151132
151132440
$GPRMC,062913.00,A,3746.81033,N,12224.40897,W,0.284,,050815,,,A*
152143
152145888
$GPRMC,062914.00,A,3746.80928,N,12224.41049,W,1.118,,050815,,,A*
153157
153157712
$GPRMC,062915.00,A,3746.80927,N,12224.41121,W,1.252,,050815,,,A*
154165
154167248
$GPRMC,062916.00,A,3746.80932,N,12224.41162,W,1.161,,050815,,,A*
155179
155180696
$GPRMC,062917.00,A,3746.80950,N,12224.41163,W,0.780,,050815,,,A*
156192
156194280
$GPRMC,062918.00,A,3746.80961,N,12224.41195,W,1.027,,050815,,,A*
157202
157204184
$GPRMC,062919.00,A,3746.80992,N,12224.41180,W,0.805,,050815,,,A*
158214
158215776
$GPRMC,062920.00,A,3746.80994,N,12224.41166,W,0.235,,050815,,,A*
159227
159229072
$GPRMC,062921.00,A,3746.81030,N,12224.41169,W,0.192,,050815,,,A*
160241
160242528
$GPRMC,062922.00,A,3746.81065,N,12224.41143,W,0.342,,050815,,,A*
161255
161256232
$GPRMC,062923.00,A,3746.81058,N,12224.41241,W,0.630,,050815,,,A*
162269
162269976
$GPRMC,062924.00,A,3746.81079,N,12224.41260,W,0.527,,050815,,,A*
163282
163283552
$GPRMC,062925.00,A,3746.81095,N,12224.41275,W,0.574,,050815,,,A*
164296
164297176
$GPRMC,062926.00,A,3746.81089,N,12224.41292,W,0.518,,050815,,,A*
165310
165310968
$GPRMC,062927.00,A,3746.81110,N,12224.41296,W,0.911,,050815,,,A*
166324
166325328
$GPRMC,062928.00,A,3746.81126,N,12224.41314,W,0.905,,050815,,,A*
167337
167339592
$GPRMC,062929.00,A,3746.81144,N,12224.41346,W,0.628,,050815,,,A*
168351
168353392
$GPRMC,062930.00,A,3746.81146,N,12224.41344,W,0.194,,050815,,,A*
169365
169366768
$GPRMC,062931.00,A,3746.81095,N,12224.41392,W,0.180,,050815,,,A*
170379
170380576
$GPRMC,062932.00,A,3746.81044,N,12224.41467,W,0.553,,050815,,,A*
171393
171394352
$GPRMC,062933.00,A,3746.81009,N,12224.41501,W,0.583,,050815,,,A*
172406
172407576
$GPRMC,062934.00,A,3746.80992,N,12224.41513,W,0.296,,050815,,,A*
173420
173421384
$GPRMC,062935.00,A,3746.80957,N,12224.41512,W,0.277,,050815,,,A*
174434
174434600
$GPRMC,062936.00,A,3746.80916,N,12224.41527,W,0.447,,050815,,,A*
175446
175447816
$GPRMC,062937.00,A,3746.80904,N,12224.41519,W,0.305,,050815,,,A*
176459
176461360
$GPRMC,062938.00,A,3746.80922,N,12224.41494,W,0.447,,050815,,,A*
177469
177470464
$GPRMC,062939.00,A,3746.80937,N,12224.41474,W,0.451,,050815,,,A*
178483
178484032
$GPRMC,062940.00,A,3746.80952,N,12224.41459,W,0.286,,050815,,,A*
179496
179497360
$GPRMC,062941.00,A,3746.80975,N,12224.41445,W,0.167,,050815,,,A*
180508
180509312
$GPRMC,062942.00,A,3746.80998,N,12224.41429,W,0.202,,050815,,,A*
181520
181520880
$GPRMC,062943.00,A,3746.80993,N,12224.41462,W,0.465,,050815,,,A*
182534
182534376
$GPRMC,062944.00,A,3746.80989,N,12224.41487,W,0.850,,050815,,,A*
183547
183548264
$GPRMC,062945.00,A,3746.81003,N,12224.41463,W,0.512,,050815,,,A*
184561
184562128
$GPRMC,062946.00,A,3746.81022,N,12224.41424,W,0.192,,050815,,,A*
185573
185575176
$GPRMC,062947.00,A,3746.81038,N,12224.41399,W,0.137,,050815,,,A*
186587
186588952
$GPRMC,062948.00,A,3746.81057,N,12224.41371,W,0.044,,050815,,,A*
187600
187602768
$GPRMC,062949.00,A,3746.81062,N,12224.41354,W,0.112,,050815,,,A*
188616
188616928
$GPRMC,062950.00,A,3746.81067,N,12224.41338,W,0.221,,050815,,,A*
189630
189631064
$GPRMC,062951.00,A,3746.81065,N,12224.41347,W,0.427,,050815,,,A*
190644
190644968
$GPRMC,062952.00,A,3746.81084,N,12224.41308,W,0.056,,050815,,,A*
191657
191659408
$GPRMC,062953.00,A,3746.81076,N,12224.41317,W,0.388,,050815,,,A*
192673
192673832
$GPRMC,062954.00,A,3746.81088,N,12224.41289,W,0.187,,050815,,,A*
193687
193688104
$GPRMC,062955.00,A,3746.81086,N,12224.41279,W,0.323,,050815,,,A*
194701
194701880
$GPRMC,062956.00,A,3746.81081,N,12224.41277,W,0.296,,050815,,,A*
195715
195716200
$GPRMC,062957.00,A,3746.81116,N,12224.41206,W,0.438,,050815,,,A*
196726
196728384
$GPRMC,062958.00,A,3746.81132,N,12224.41182,W,0.298,,050815,,,A*
197740
197742384
$GPRMC,062959.00,A,3746.81139,N,12224.41162,W,0.475,,050815,,,A*
198754
198756344
$GPRMC,063000.00,A,3746.81143,N,12224.41143,W,0.561,,050815,,,A*
199770
199770152
$GPRMC,063001.00,A,3746.81141,N,12224.41128,W,0.486,,050815,,,A*
200781
200783808
$GPRMC,063002.00,A,3746.81126,N,12224.41131,W,0.187,,050815,,,A*
201795
201797384
$GPRMC,063003.00,A,3746.81137,N,12224.41097,W,0.290,,050815,,,A*
202807
202808920
$GPRMC,063004.00,A,3746.81155,N,12224.41062,W,0.479,,050815,,,A*
203821
203822312
$GPRMC,063005.00,A,3746.81163,N,12224.41029,W,0.649,,050815,,,A*
204834
204835816
$GPRMC,063006.00,A,3746.81148,N,12224.40997,W,0.656,,050815,,,A*
205848
205849416
$GPRMC,063007.00,A,3746.81166,N,12224.40982,W,0.370,,050815,,,A*
206862
206862824
$GPRMC,063008.00,A,3746.81181,N,12224.40972,W,0.281,,050815,,,A*
207876
207876168
$GPRMC,063009.00,A,3746.81229,N,12224.40910,W,0.957,,050815,,,A*
208887
208889672
$GPRMC,063010.00,A,3746.81269,N,12224.40846,W,1.217,,050815,,,A*
209899
209900912
$GPRMC,063011.00,A,3746.81297,N,12224.40791,W,1.040,,050815,,,A*
210913
210913856
$GPRMC,063012.00,A,3746.81357,N,12224.40698,W,1.656,46.73,050815,,,A*
211927
211927368
$GPRMC,063013.00,A,3746.81399,N,12224.40626,W,1.569,48.58,050815,,,A*
212938
212940320
$GPRMC,063014.00,A,3746.81467,N,12224.40522,W,1.956,49.13,050815,,,A*
213952
213953584
